[
  { "id": "shanghai", "name": "Shanghai", "country": "China", "latDeg": 31.230, "lonDeg": 121.490 },
  { "id": "singapore", "name": "Singapore", "country": "Singapore", "latDeg": 1.264, "lonDeg": 103.840 },
  { "id": "ningbo", "name": "Ningbo-Zhoushan", "country": "China", "latDeg": 29.869, "lonDeg": 121.854 },
  { "id": "shenzhen", "name": "Shenzhen", "country": "China", "latDeg": 22.484, "lonDeg": 113.909 },
  { "id": "qingdao", "name": "Qingdao", "country": "China", "latDeg": 36.083, "lonDeg": 120.323 },
  { "id": "guangzhou", "name": "Guangzhou (Nansha)", "country": "China", "latDeg": 22.762, "lonDeg": 113.606 },
  { "id": "busan", "name": "Busan", "country": "South Korea", "latDeg": 35.104, "lonDeg": 129.042 },
  { "id": "tianjin", "name": "Tianjin", "country": "China", "latDeg": 38.986, "lonDeg": 117.751 },
  { "id": "hongkong", "name": "Hong Kong", "country": "China", "latDeg": 22.320, "lonDeg": 114.147 },
  { "id": "rotterdam", "name": "Rotterdam", "country": "Netherlands", "latDeg": 51.949, "lonDeg": 4.144 },
  { "id": "jebelali", "name": "Jebel Ali (Dubai)", "country": "UAE", "latDeg": 25.011, "lonDeg": 55.061 },
  { "id": "portklang", "name": "Port Klang", "country": "Malaysia", "latDeg": 3.000, "lonDeg": 101.392 },
  { "id": "antwerp", "name": "Antwerp-Bruges", "country": "Belgium", "latDeg": 51.283, "lonDeg": 4.303 },
  { "id": "xiamen", "name": "Xiamen", "country": "China", "latDeg": 24.449, "lonDeg": 118.072 },
  { "id": "tanjungpelepas", "name": "Tanjung Pelepas", "country": "Malaysia", "latDeg": 1.362, "lonDeg": 103.549 },
  { "id": "kaohsiung", "name": "Kaohsiung", "country": "Taiwan", "latDeg": 22.605, "lonDeg": 120.281 },
  { "id": "losangeles", "name": "Los Angeles / Long Beach", "country": "USA", "latDeg": 33.740, "lonDeg": -118.262 },
  { "id": "hamburg", "name": "Hamburg", "country": "Germany", "latDeg": 53.541, "lonDeg": 9.938 },
  { "id": "newyork", "name": "New York / New Jersey", "country": "USA", "latDeg": 40.669, "lonDeg": -74.045 },
  { "id": "laemchabang", "name": "Laem Chabang", "country": "Thailand", "latDeg": 13.082, "lonDeg": 100.883 },
  { "id": "hochiminh", "name": "Ho Chi Minh (Cat Lai)", "country": "Vietnam", "latDeg": 10.757, "lonDeg": 106.795 },
  { "id": "colombo", "name": "Colombo", "country": "Sri Lanka", "latDeg": 6.951, "lonDeg": 79.845 },
  { "id": "tanjungpriok", "name": "Jakarta (Tanjung Priok)", "country": "Indonesia", "latDeg": -6.096, "lonDeg": 106.885 },
  { "id": "mundra", "name": "Mundra", "country": "India", "latDeg": 22.744, "lonDeg": 69.702 },
  { "id": "nhavasheva", "name": "Nhava Sheva (JNPT)", "country": "India", "latDeg": 18.950, "lonDeg": 72.951 },
  { "id": "valencia", "name": "Valencia", "country": "Spain", "latDeg": 39.442, "lonDeg": -0.316 },
  { "id": "algeciras", "name": "Algeciras", "country": "Spain", "latDeg": 36.131, "lonDeg": -5.435 },
  { "id": "piraeus", "name": "Piraeus", "country": "Greece", "latDeg": 37.947, "lonDeg": 23.617 },
  { "id": "bremerhaven", "name": "Bremerhaven", "country": "Germany", "latDeg": 53.566, "lonDeg": 8.554 },
  { "id": "tokyo", "name": "Tokyo / Yokohama", "country": "Japan", "latDeg": 35.454, "lonDeg": 139.685 },
  { "id": "savannah", "name": "Savannah", "country": "USA", "latDeg": 32.129, "lonDeg": -81.141 },
  { "id": "santos", "name": "Santos", "country": "Brazil", "latDeg": -23.982, "lonDeg": -46.299 },
  { "id": "tangermed", "name": "Tanger Med", "country": "Morocco", "latDeg": 35.895, "lonDeg": -5.500 },
  { "id": "portsaid", "name": "Port Said (Suez)", "country": "Egypt", "latDeg": 31.250, "lonDeg": 32.306 },
  { "id": "jeddah", "name": "Jeddah", "country": "Saudi Arabia", "latDeg": 21.480, "lonDeg": 39.170 },
  { "id": "felixstowe", "name": "Felixstowe", "country": "UK", "latDeg": 51.950, "lonDeg": 1.308 },
  { "id": "lehavre", "name": "Le Havre", "country": "France", "latDeg": 49.480, "lonDeg": 0.130 },
  { "id": "genoa", "name": "Genoa", "country": "Italy", "latDeg": 44.402, "lonDeg": 8.917 },
  { "id": "barcelona", "name": "Barcelona", "country": "Spain", "latDeg": 41.345, "lonDeg": 2.159 },
  { "id": "manila", "name": "Manila", "country": "Philippines", "latDeg": 14.590, "lonDeg": 120.951 },
  { "id": "melbourne", "name": "Melbourne", "country": "Australia", "latDeg": -37.828, "lonDeg": 144.917 },
  { "id": "durban", "name": "Durban", "country": "South Africa", "latDeg": -29.870, "lonDeg": 31.030 },
  { "id": "lagos", "name": "Lagos (Apapa)", "country": "Nigeria", "latDeg": 6.443, "lonDeg": 3.366 },
  { "id": "colon", "name": "Colón (Panama)", "country": "Panama", "latDeg": 9.365, "lonDeg": -79.880 },
  { "id": "vancouver", "name": "Vancouver", "country": "Canada", "latDeg": 49.288, "lonDeg": -123.111 }
]
